{"resourceType":"Location","id":"LocNewCollP2pCrtV102","meta":{"lastUpdated":"2024-08-02T09:19:36.316+00:00","profile":["http://hl7.org/fhir/us/core/StructureDefinition/us-core-location"]},"identifier":[{"system":"http://www.acme.org/location","value":"29"}],"status":"active","name":"Health Level Seven International - Amherst","description":"HL7 Headquarters - East","telecom":[{"system":"phone","value":"(+1) 734-677-7777"}],"address":{"line":["3300 Washtenaw Avenue, Suite 227"],"city":"Amherst","state":"MA","postalCode":"01002","country":"USA"},"position":{"longitude":-72.519854,"latitude":42.373222},"managingOrganization":{"display":"Health Level Seven International"}}
{"resourceType":"Location","id":"LocNewCollP2pInProf03","meta":{"lastUpdated":"2024-08-02T09:19:36.316+00:00","profile":["http://hl7.org/fhir/us/core/StructureDefinitcore-location|6.1.0"]},"identifier":[{"system":"http://www.acme.org/location","value":"29"}],"status":"active","name":"Health Level Seven International - Amherst","description":"HL7 Headquarters - East","telecom":[{"system":"phone","value":"(+1) 734-677-7777"}],"address":{"line":["3300 Washtenaw Avenue, Suite 227"],"city":"Amherst","state":"MA","postalCode":"01002","country":"USA"},"position":{"longitude":-72.519854,"latitude":42.373222},"managingOrganization":{"display":"Health Level Seven International"}}
{"resourceType":"Location","id":"LocNewCollP2pNoMeta04","identifier":[{"system":"http://www.acme.org/location","value":"29"}],"status":"active","name":"Health Level Seven International - Amherst","description":"HL7 Headquarters - East","telecom":[{"system":"phone","value":"(+1) 734-677-7777"}],"address":{"line":["3300 Washtenaw Avenue, Suite 227"],"city":"Amherst","state":"MA","postalCode":"01002","country":"USA"},"position":{"longitude":-72.519854,"latitude":42.373222},"managingOrganization":{"display":"Health Level Seven International"}}
{"resourceType":"Location","id":"LocNewCollP2pReproces05","meta":{"lastUpdated":"2024-09-02T09:19:36.316+00:00","profile":["http://hl7.org/fhir/us/core/StructureDefinition/us-core-location"]},"identifier":[{"system":"http://www.acme.org/location","value":"29"}],"status":"active","name":"Health Level Seven International - Amherst","description":"HL7 Headquarters - East","telecom":[{"system":"phone","value":"(+1) 734-677-7777"}],"address":{"line":["3300 Washtenaw Avenue, Suite 227"],"city":"Amherst","state":"MA","postalCode":"01002","country":"USA"},"position":{"longitude":-72.519854,"latitude":42.373222},"managingOrganization":{"display":"Health Level Seven International"}}
{"resourceType":"Location","id":"LocNewCollP2pRegex07","meta":{"profile":["http://hl7.org/fhir/us/core/StructureDefinition/us-core-location|6.1.0"]},"identifier":[{"system":"http://www.acme.org/location","value":"29"}],"status":"active","name":"Health Level Seven International - Amherst","description":"HL7 Headquarters - East","partOf":[{"reference":"Location/O!rgingest521644"}],"telecom":[{"system":"phone","value":"(+1) 734-677-7777"}],"address":{"line":["3300 Washtenaw Avenue, Suite 227"],"city":"Amherst","state":"MA","postalCode":"01002","country":"USA"},"position":{"longitude":-72.519854,"latitude":42.373222},"managingOrganization":{"display":"Health Level Seven International"}}